[
  {
    "siteId": "438",
    "battleName": "Battle of Lodi",
    "battleCenter": {
      "lat": 45.3253,
      "lng": 9.5179
    },
    "units": [
      {
        "id": "lodi-fr-1",
        "label": "Div. Masséna",
        "side": "french",
        "category": "infantry",
        "lat": 45.3225,
        "lng": 9.5090,
        "widthM": 400,
        "heightM": 90,
        "angleDeg": 60,
        "labelLat": 45.3235,
        "labelLng": 9.5100,
        "labelAngleDeg": -30
      },
      {
        "id": "lodi-fr-2",
        "label": "Div. Augereau",
        "side": "french",
        "lat": 45.3190,
        "lng": 9.5120,
        "widthM": 380,
        "heightM": 90,
        "angleDeg": 60
      },
      {
        "id": "lodi-fr-3",
        "label": "Cav. Beaumont",
        "side": "french",
        "category": "cavalry",
        "lat": 45.3250,
        "lng": 9.5060,
        "widthM": 300,
        "heightM": 70,
        "angleDeg": 60
      },
      {
        "id": "lodi-au-1",
        "label": "Sebottendorf",
        "side": "prussian",
        "category": "artillery",
        "lat": 45.3265,
        "lng": 9.5230,
        "widthM": 100,
        "heightM": 100,
        "angleDeg": 60
      },
      {
        "id": "lodi-au-2",
        "label": "Vukassovich",
        "side": "russian",
        "lat": 45.3230,
        "lng": 9.528,
        "widthM": 380,
        "heightM": 90,
        "angleDeg": 60
      },
      {
        "id": "lodi-au-3",
        "label": "Cav. Coburg",
        "side": "austrian",
        "category": "cavalry",
        "lat": 45.3295,
        "lng": 9.5210,
        "widthM": 280,
        "heightM": 70,
        "angleDeg": 60,
        "labelLat": 45.3305,
        "labelLng": 9.5200,
        "labelAngleDeg": 15
      },
      {
        "id": "lodi-ne-1",
        "label": "Naples Cavalry Reg Re",
        "side": "napolitan",
        "category": "cavalry",
        "lat": 45.328728,
        "lng": 9.5312,
        "widthM": 350,
        "heightM": 60,
        "angleDeg": 60
      },
      {
        "id": "lodi-ne-2",
        "label": "Naples Cavalry Reg Regina",
        "side": "napolitan",
        "category": "cavalry",
        "lat": 45.3331,
        "lng": 9.5275,
        "widthM": 350,
        "heightM": 60,
        "angleDeg": 60
      },
      {
        "id": "lodi-au-10",
        "label": "General Nicoletti",
        "side": "austrian",
        "lat": 45.3065,
        "lng": 9.555,
        "widthM": 0,
        "heightM": 0,
        "angleDeg": 0
      },
      {
        "id": "lodi-au-11",
        "label": "",
        "side": "austrian",
        "lat": 45.303925,
        "lng": 9.55588,
        "widthM": 350,
        "heightM": 60,
        "angleDeg": 0
      },
      {
        "id": "lodi-au-11bis",
        "label": "Strassoldo Inf Rgt",
        "side": "austrian",
        "lat": 45.305,
        "lng": 9.555,
        "widthM": 0,
        "heightM": 0,
        "angleDeg": 0
      },
      {
        "id": "lodi-au-12",
        "label": "",
        "side": "austrian",
        "lat": 45.303925,
        "lng": 9.5595,
        "widthM": 150,
        "heightM": 60,
        "angleDeg": 0
      },
      {
        "id": "lodi-au-12bis",
        "label": "Tuscany Inf Rgt",
        "side": "austrian",
        "lat": 45.3043,
        "lng": 9.559,
        "widthM": 0,
        "heightM": 0,
        "angleDeg": 0
      },
      {
        "id": "lodi-au-13",
        "label": "",
        "side": "austrian",
        "lat": 45.3035,
        "lng": 9.552,
        "widthM": 100,
        "heightM": 60,
        "angleDeg": -20
      },
      {
        "id": "lodi-au-13bis",
        "label": "Erdödy Hussars",
        "side": "austrian",
        "lat": 45.3027,
        "lng": 9.552,
        "widthM": 0,
        "heightM": 0,
        "angleDeg": -20
      },
      {
        "id": "lodi-au-14",
        "label": "",
        "side": "austrian",
        "lat": 45.3038,
        "lng": 9.5625,
        "widthM": 100,
        "heightM": 60,
        "angleDeg": 20
      },
      {
        "id": "lodi-au-14bis",
        "label": "Erdödy Hussars",
        "side": "austrian",
        "lat": 45.3028,
        "lng": 9.562,
        "widthM": 0,
        "heightM": 0,
        "angleDeg": -20
      },
      {
        "id": "lodi-au-20",
        "label": "Gral Vukassovich",
        "side": "austrian",
        "lat": 45.307623,
        "lng": 9.506,
        "widthM": 0,
        "heightM": 0,
        "angleDeg": 0
      },
      {
        "id": "lodi-au-20",
        "label": "Carlstädter Grenz Inf Reg",
        "side": "austrian",
        "lat": 45.3065,
        "lng": 9.5108,
        "widthM": 500,
        "heightM": 60,
        "angleDeg": -30
      },
      {
        "id": "lodi-au-21",
        "label": "Mészáros Uhlan Reg",
        "side": "austrian",
        "category": "cavalry",
        "lat": 45.313,
        "lng": 9.5109,
        "widthM": 150,
        "heightM": 60,
        "angleDeg": -30
      },
      {
        "id": "lodi-au-22",
        "label": "Nádasdy Inf Reg",
        "side": "austrian",
        "lat": 45.3115,
        "lng": 9.506,
        "widthM": 250,
        "heightM": 60,
        "angleDeg": -30
      },
      {
        "id": "lodi-fr-20",
        "label": "French advance guard",
        "side": "french",
        "lat": 45.3045,
        "lng": 9.513144,
        "widthM": 800,
        "heightM": 60,
        "angleDeg": -30
      }
    ]
  }
]